s,lat,long,label,image
http://dbpedia.org/resource/United_States,38.8833,-77.0167,United States,http://commons.wikimedia.org/wiki/Special:FilePath/Flag_of_the_United_States.svg?width=300
http://dbpedia.org/resource/Vienna,48.2,16.3667,Vienna,http://commons.wikimedia.org/wiki/Special:FilePath/Montage_of_Vienna.jpg?width=300
http://dbpedia.org/resource/Austria,47.3333,13.3333,Austria,http://commons.wikimedia.org/wiki/Special:FilePath/Flag_of_Austria.svg?width=300
http://dbpedia.org/resource/Chicago,41.8819,-87.6278,Chicago,http://commons.wikimedia.org/wiki/Special:FilePath/Chicago_Skyline_Oct_2022_2.jpg?width=300
http://dbpedia.org/resource/Illinois,41.2782,-88.3802,Illinois,http://commons.wikimedia.org/wiki/Special:FilePath/Flag_of_Illinois.svg?width=300
http://dbpedia.org/resource/River_Trent,53.1161,-2.14028,River Trent,http://commons.wikimedia.org/wiki/Special:FilePath/RiverTrentNottingham.jpg?width=300
http://dbpedia.org/resource/Harlem,,,Harlem,http://commons.wikimedia.org/wiki/Special:FilePath/Harlem_04.jpg?width=300
