s,lat,long,label,image
http://dbpedia.org/resource/Queen_Elizabeth_Hall,51.5067,-0.116361,Queen Elizabeth Hall,http://commons.wikimedia.org/wiki/Special:FilePath/23_4_2018_IMG_3462_QEH_entrance.jpg?width=300
http://dbpedia.org/resource/London,51.5072,-0.1275,London,http://commons.wikimedia.org/wiki/Special:FilePath/London_Montage_L.jpg?width=300
http://dbpedia.org/resource/Vienna,48.2,16.3667,Vienna,http://commons.wikimedia.org/wiki/Special:FilePath/Montage_of_Vienna.jpg?width=300
http://dbpedia.org/resource/New_York_City,40.7128,-74.0061,New York City,http://commons.wikimedia.org/wiki/Special:FilePath/View_of_Empire_State_Building_from_Rockefeller_Center_New_York_City_dllu.jpg?width=300
http://dbpedia.org/resource/Carnegie_Hall,40.765,-73.98,Carnegie Hall,http://commons.wikimedia.org/wiki/Special:FilePath/Carnegie_Hall_-_Full_(48155558466).jpg?width=300
http://dbpedia.org/resource/Carnegie_Hall,40.765,-73.98,Carnegie Hall,http://commons.wikimedia.org/wiki/Special:FilePath/Carnegie_Hall_-_Full_(48155558466).jpg?width=300
http://dbpedia.org/resource/Montreal,45.5089,-73.5542,Montreal,http://commons.wikimedia.org/wiki/Special:FilePath/Montreal_Montage_2020.jpg?width=300
http://dbpedia.org/resource/Boston,42.3603,-71.0578,Boston,http://commons.wikimedia.org/wiki/Special:FilePath/Boston_-_panoramio_(23).jpg?width=300
http://dbpedia.org/resource/Weimar,50.9833,11.3167,Weimar,http://commons.wikimedia.org/wiki/Special:FilePath/Hissflagge_Weimar.svg?width=300
