s,lat,long,label,image
http://dbpedia.org/resource/San_Francisco,37.7775,-122.416,San Francisco,http://commons.wikimedia.org/wiki/Special:FilePath/San_Francisco_from_the_Marin_Headlands_in_August_2022.jpg?width=300
http://dbpedia.org/resource/Los_Angeles,34.05,-118.25,Los Angeles,http://commons.wikimedia.org/wiki/Special:FilePath/Los_Angeles_with_Mount_Baldy.jpg?width=300
http://dbpedia.org/resource/Burton_upon_Trent,52.8019,-1.63667,Burton upon Trent,http://commons.wikimedia.org/wiki/Special:FilePath/Town_Hall_-_geograph.org.uk_-_352398.jpg?width=300
http://dbpedia.org/resource/London,51.5072,-0.1275,London,http://commons.wikimedia.org/wiki/Special:FilePath/London_Montage_L.jpg?width=300
http://dbpedia.org/resource/Europe,,,Europe,http://commons.wikimedia.org/wiki/Special:FilePath/Europe_orthographic_Caucasus_Urals_boundary_(with_borders).svg?width=300
http://dbpedia.org/resource/Africa,,,Africa,http://commons.wikimedia.org/wiki/Special:FilePath/Africa_(orthographic_projection).svg?width=300
http://dbpedia.org/resource/United_Kingdom,51.5,-0.116667,United Kingdom,http://commons.wikimedia.org/wiki/Special:FilePath/Flag_of_the_United_Kingdom.svg?width=300
http://dbpedia.org/resource/John_F._Kennedy_Center_for_the_Performing_Arts,38.8957,-77.0559,John F. Kennedy Center for the Performing Arts,http://commons.wikimedia.org/wiki/Special:FilePath/KennedyCenterFromAir2.jpg?width=300
