s,lat,long,label,image
"http://dbpedia.org/resource/Hayfield,_Derbyshire",53.38,-1.94,"Hayfield, Derbyshire","http://commons.wikimedia.org/wiki/Special:FilePath/Hayfield,_Derbyshire_from_the_northwest.jpg?width=300"
"http://dbpedia.org/resource/Strand,_London",51.5114,-0.119,"Strand, London","http://commons.wikimedia.org/wiki/Special:FilePath/Strand,_London_WC2_-_geograph.org.uk_-_752450.jpg?width=300"
http://dbpedia.org/resource/Royal_National_Theatre,51.5071,-0.1141,Royal National Theatre,"http://commons.wikimedia.org/wiki/Special:FilePath/National_Theatre,_London.jpg?width=300"
http://dbpedia.org/resource/The_Old_Vic,51.5022,-0.1096,The Old Vic,http://commons.wikimedia.org/wiki/Special:FilePath/Waterloo_the_old_vic_1.jpg?width=300
http://dbpedia.org/resource/Royal_Court_Theatre,51.4926,-0.156583,Royal Court Theatre,"http://commons.wikimedia.org/wiki/Special:FilePath/Royal_Court_theater,_Sloane_Square_Chelsea_London_UK_2020.jpg?width=300"
http://dbpedia.org/resource/Venice,45.4375,12.3358,Venice,http://commons.wikimedia.org/wiki/Special:FilePath/Collage_Venezia.jpg?width=300
