s,lat,long,label,image
http://dbpedia.org/resource/The_Public_Theater,40.7292,-73.9917,The Public Theater,http://commons.wikimedia.org/wiki/Special:FilePath/Loz_ptDSC00087.jpg?width=300
http://dbpedia.org/resource/Hunter_Region,-32.9167,151.75,Hunter Region,http://commons.wikimedia.org/wiki/Special:FilePath/Hunter_panorama-1b-web-l.jpg?width=300
"http://dbpedia.org/resource/Washington,_D.C.",38.9047,-77.0164,"Washington, D.C.","http://commons.wikimedia.org/wiki/Special:FilePath/National_Mall,_Lincoln_Memorial_04448v_(cropped).jpg?width=300"
http://dbpedia.org/resource/Sweden,59.35,16.0,Sweden,http://commons.wikimedia.org/wiki/Special:FilePath/Flag_of_Sweden.svg?width=300
http://dbpedia.org/resource/Hell,,,Hell,http://commons.wikimedia.org/wiki/Special:FilePath/Hortus_Deliciarum_-_Hell.jpg?width=300
http://dbpedia.org/resource/Manchester,53.4794,-2.24528,Manchester,http://commons.wikimedia.org/wiki/Special:FilePath/Manchester_City_Centre_Skyline.jpg?width=300
http://dbpedia.org/resource/New_York_City,40.7128,-74.0061,New York City,http://commons.wikimedia.org/wiki/Special:FilePath/View_of_Empire_State_Building_from_Rockefeller_Center_New_York_City_dllu.jpg?width=300
