s,lat,long,label,image
http://dbpedia.org/resource/Peebles,55.6519,-3.18889,Peebles,http://commons.wikimedia.org/wiki/Special:FilePath/Peebles.png?width=300
http://dbpedia.org/resource/United_Kingdom,51.5,-0.116667,United Kingdom,http://commons.wikimedia.org/wiki/Special:FilePath/Flag_of_the_United_Kingdom.svg?width=300
http://dbpedia.org/resource/United_States,38.8833,-77.0167,United States,http://commons.wikimedia.org/wiki/Special:FilePath/Flag_of_the_United_States.svg?width=300
http://dbpedia.org/resource/London,51.5072,-0.1275,London,http://commons.wikimedia.org/wiki/Special:FilePath/London_Montage_L.jpg?width=300
http://dbpedia.org/resource/Australia,-35.3081,149.124,Australia,http://commons.wikimedia.org/wiki/Special:FilePath/Flag_of_Australia_(converted).svg?width=300
http://dbpedia.org/resource/Queensland,,,Queensland,http://commons.wikimedia.org/wiki/Special:FilePath/Flag_of_Queensland.svg?width=300
"http://dbpedia.org/resource/Octagon_Theatre,_Bolton",53.5772,-2.43056,"Octagon Theatre, Bolton",http://commons.wikimedia.org/wiki/Special:FilePath/Octagon_Theatre_Bolton_Front_Sidewalk.jpg?width=300
http://dbpedia.org/resource/Western_Australia,-26.0,121.0,Western Australia,http://commons.wikimedia.org/wiki/Special:FilePath/Flag_of_Western_Australia.svg?width=300
