s,lat,long,label,image
http://dbpedia.org/resource/Long_Beach_Naval_Shipyard,33.7572,-118.231,Long Beach Naval Shipyard,http://commons.wikimedia.org/wiki/Special:FilePath/Long_Beach_Naval_Shipyard.jpg?width=300
http://dbpedia.org/resource/San_Diego,32.715,-117.162,San Diego,http://commons.wikimedia.org/wiki/Special:FilePath/Skyline_of_San_Diego_(cropped).jpg?width=300
http://dbpedia.org/resource/California,35.491,-119.348,California,http://commons.wikimedia.org/wiki/Special:FilePath/Flag_of_California.svg?width=300
http://dbpedia.org/resource/Los_Angeles,34.05,-118.25,Los Angeles,http://commons.wikimedia.org/wiki/Special:FilePath/Los_Angeles_with_Mount_Baldy.jpg?width=300
http://dbpedia.org/resource/Joshua_Tree_National_Park,34.1,-116.27,Joshua Tree National Park,http://commons.wikimedia.org/wiki/Special:FilePath/Joshua_Tree_-_Cyclops_+_Potato_Head_-_Sunrise.jpg?width=300
http://dbpedia.org/resource/London_Borough_of_Camden,51.5333,-0.166667,London Borough of Camden,http://commons.wikimedia.org/wiki/Special:FilePath/Coat_of_arms_of_the_London_Borough_of_Camden.svg?width=300
