s,lat,long,label,image
http://dbpedia.org/resource/California,35.491,-119.348,California,http://commons.wikimedia.org/wiki/Special:FilePath/Flag_of_California.svg?width=300
http://dbpedia.org/resource/Cleveland,41.4822,-81.6997,Cleveland,http://commons.wikimedia.org/wiki/Special:FilePath/CLE_Edgewater.png?width=300
http://dbpedia.org/resource/United_States,38.8833,-77.0167,United States,http://commons.wikimedia.org/wiki/Special:FilePath/Flag_of_the_United_States.svg?width=300
http://dbpedia.org/resource/Varsi,44.6667,9.85,Varsi,http://commons.wikimedia.org/wiki/Special:FilePath/Groppo_Rocca_Varsi.jpg?width=300
http://dbpedia.org/resource/Kempton_Park_Racecourse,51.4186,-0.398056,Kempton Park Racecourse,http://commons.wikimedia.org/wiki/Special:FilePath/2012_Rock_Gem_n_Bead_Show_31.jpg?width=300
http://dbpedia.org/resource/Las_Vegas,36.175,-115.246,Las Vegas,http://commons.wikimedia.org/wiki/Special:FilePath/Las_Vegas_Skyline_at_night_North_(7314937576).jpg?width=300
