s,lat,long,label,image
http://dbpedia.org/resource/United_States,38.8833,-77.0167,United States,http://commons.wikimedia.org/wiki/Special:FilePath/Flag_of_the_United_States.svg?width=300
http://dbpedia.org/resource/Chicago,41.8819,-87.6278,Chicago,http://commons.wikimedia.org/wiki/Special:FilePath/Chicago_Skyline_Oct_2022_2.jpg?width=300
http://dbpedia.org/resource/Munich,48.1375,11.575,Munich,http://commons.wikimedia.org/wiki/Special:FilePath/Stadtbild_München.jpg?width=300
http://dbpedia.org/resource/Nazi_Germany,52.5167,13.3833,Nazi Germany,http://commons.wikimedia.org/wiki/Special:FilePath/Flag_of_Germany_(3-2_aspect_ratio).svg?width=300
http://dbpedia.org/resource/Turin,45.0792,7.67611,Turin,http://commons.wikimedia.org/wiki/Special:FilePath/Turin_Montage.png?width=300
http://dbpedia.org/resource/Italy,41.9,12.0,Italy,http://commons.wikimedia.org/wiki/Special:FilePath/Flag_of_Italy.svg?width=300
http://dbpedia.org/resource/Munich,48.1375,11.575,Munich,http://commons.wikimedia.org/wiki/Special:FilePath/Stadtbild_München.jpg?width=300
http://dbpedia.org/resource/Germany,51.0,9.0,Germany,http://commons.wikimedia.org/wiki/Special:FilePath/Flag_of_Germany.svg?width=300
